"No.","Time","Source","Destination","Protocol","Length","Info"
"1","0.000000000","10.76.105.1","10.244.105.1","MAVLink 2.0","118","ACTUATOR_CONTROL_TARGET"
"2","0.000021526","10.76.105.1","10.244.105.1","MAVLink 2.0","106","ATTITUDE"
"3","0.000024940","10.76.105.1","10.244.105.1","MAVLink 2.0","110","ATTITUDE_QUATERNION"
"4","0.000027979","10.76.105.1","10.244.105.1","MAVLink 2.0","140","HIGHRES_IMU"
"5","0.000030735","10.76.105.1","10.244.105.1","MAVLink 2.0","99","SERVO_OUTPUT_RAW"
"6","0.000054195","10.244.105.1","10.76.105.1","TCP","66","36286  >  5760 [ACK] Seq=1 Ack=244 Win=9617 Len=0 TSval=2474322998 TSecr=519146535"
"7","0.008952330","10.76.105.1","10.244.105.1","MAVLink 2.0","90","SERVO_OUTPUT_RAW"
"8","0.008977864","10.76.105.1","10.244.105.1","MAVLink 2.0","95","VFR_HUD"
"9","0.009578550","10.244.105.1","10.76.105.1","TCP","66","36286  >  5760 [ACK] Seq=1 Ack=297 Win=9617 Len=0 TSval=2474323007 TSecr=519146547"
"10","0.018001611","10.76.105.1","10.244.105.1","MAVLink 2.0","79","MISSION_CURRENT"
"11","0.018019040","10.76.105.1","10.244.105.1","MAVLink 2.0","106","ATTITUDE"
"12","0.018048571","10.244.105.1","10.76.105.1","TCP","66","36286  >  5760 [ACK] Seq=1 Ack=350 Win=9617 Len=0 TSval=2474323016 TSecr=519146557"
"13","0.027101963","10.76.105.1","10.244.105.1","MAVLink 2.0","110","ATTITUDE_QUATERNION"
"14","0.027121761","10.76.105.1","10.244.105.1","MAVLink 2.0","139","HIGHRES_IMU"
"15","0.027125312","10.76.105.1","10.244.105.1","MAVLink 2.0","102","SCALED_IMU"
"16","0.027153776","10.244.105.1","10.76.105.1","TCP","66","36286  >  5760 [ACK] Seq=1 Ack=503 Win=9617 Len=0 TSval=2474323025 TSecr=519146560"
"17","0.036019134","10.76.105.1","10.244.105.1","MAVLink 2.0","310","ODOMETRY"
"18","0.036035539","10.76.105.1","10.244.105.1","MAVLink 2.0","118","ACTUATOR_CONTROL_TARGET"
"19","0.036039137","10.76.105.1","10.244.105.1","MAVLink 2.0","92","TIMESYNC"
"20","0.036042184","10.76.105.1","10.244.105.1","MAVLink 2.0","110","ALTITUDE"
"21","0.036045559","10.76.105.1","10.244.105.1","MAVLink 2.0","110","ATTITUDE_TARGET"
"22","0.036048548","10.76.105.1","10.244.105.1","MAVLink 2.0","119","ESTIMATOR_STATUS"
"23","0.036050727","10.244.105.1","10.76.105.1","TCP","66","36286  >  5760 [ACK] Seq=1 Ack=825 Win=9615 Len=0 TSval=2474323034 TSecr=519146570"
"24","0.036052637","10.76.105.1","10.244.105.1","MAVLink 2.0","106","ATTITUDE"
"25","0.036090495","10.244.105.1","10.76.105.1","TCP","66","36286  >  5760 [ACK] Seq=1 Ack=1006 Win=9617 Len=0 TSval=2474323034 TSecr=519146576"
"26","0.045113652","10.76.105.1","10.244.105.1","MAVLink 2.0","110","ATTITUDE_QUATERNION"
"27","0.045131199","10.76.105.1","10.244.105.1","MAVLink 2.0","140","HIGHRES_IMU"
"28","0.045134738","10.76.105.1","10.244.105.1","MAVLink 2.0","99","SERVO_OUTPUT_RAW"
"29","0.045196665","10.244.105.1","10.76.105.1","TCP","66","36286  >  5760 [ACK] Seq=1 Ack=1157 Win=9617 Len=0 TSval=2474323043 TSecr=519146581"
"30","0.054068647","10.76.105.1","10.244.105.1","MAVLink 2.0","106","ATTITUDE"
"31","0.054086791","10.76.105.1","10.244.105.1","MAVLink 2.0","110","ATTITUDE_QUATERNION"
"32","0.054091141","10.76.105.1","10.244.105.1","MAVLink 2.0","140","HIGHRES_IMU"
"33","0.054604797","10.244.105.1","10.76.105.1","TCP","66","36286  >  5760 [ACK] Seq=1 Ack=1315 Win=9617 Len=0 TSval=2474323052 TSecr=519146597"
"34","0.062963518","10.76.105.1","10.244.105.1","MAVLink 2.0","90","SERVO_OUTPUT_RAW"
"35","0.062984804","10.76.105.1","10.244.105.1","MAVLink 2.0","95","VFR_HUD"
"36","0.062990877","10.76.105.1","10.244.105.1","MAVLink 2.0","310","ODOMETRY"
"37","0.063028642","10.244.105.1","10.76.105.1","TCP","66","36286  >  5760 [ACK] Seq=1 Ack=1612 Win=9617 Len=0 TSval=2474323061 TSecr=519146598"
"38","0.072074731","10.76.105.1","10.244.105.1","MAVLink 2.0","118","ACTUATOR_CONTROL_TARGET"
"39","0.072092821","10.76.105.1","10.244.105.1","MAVLink 2.0","102","SCALED_IMU"
"40","0.072096350","10.76.105.1","10.244.105.1","MAVLink 2.0","120","RC_CHANNELS"
"41","0.072138819","10.244.105.1","10.76.105.1","TCP","66","36286  >  5760 [ACK] Seq=1 Ack=1754 Win=9617 Len=0 TSval=2474323070 TSecr=519146603"
"42","0.081026478","10.76.105.1","10.244.105.1","MAVLink 2.0","106","ATTITUDE"
"43","0.081062418","10.76.105.1","10.244.105.1","MAVLink 2.0","110","ATTITUDE_QUATERNION"
"44","0.081101063","10.244.105.1","10.76.105.1","TCP","66","36286  >  5760 [ACK] Seq=1 Ack=1838 Win=9617 Len=0 TSval=2474323079 TSecr=519146619"
"45","0.090135251","10.76.105.1","10.244.105.1","MAVLink 2.0","139","HIGHRES_IMU"
"46","0.090153488","10.76.105.1","10.244.105.1","MAVLink 2.0","123","GPS_RAW_INT"
"47","0.090201177","10.244.105.1","10.76.105.1","TCP","66","36286  >  5760 [ACK] Seq=1 Ack=1968 Win=9617 Len=0 TSval=2474323088 TSecr=519146620"
"48","0.099149582","10.76.105.1","10.244.105.1","MAVLink 2.0","310","ODOMETRY"
"49","0.099175283","10.76.105.1","10.244.105.1","MAVLink 2.0","118","ACTUATOR_CONTROL_TARGET"
"50","0.099179325","10.76.105.1","10.244.105.1","MAVLink 2.0","99","SERVO_OUTPUT_RAW"
"51","0.099182347","10.76.105.1","10.244.105.1","MAVLink 2.0","106","ATTITUDE"
"52","0.099185457","10.76.105.1","10.244.105.1","MAVLink 2.0","110","ATTITUDE_QUATERNION"
"53","0.099188505","10.76.105.1","10.244.105.1","MAVLink 2.0","139","HIGHRES_IMU"
"54","0.099232796","10.244.105.1","10.76.105.1","TCP","66","36286  >  5760 [ACK] Seq=1 Ack=2454 Win=9617 Len=0 TSval=2474323097 TSecr=519146637"
"55","0.101201972","10.76.105.1","10.244.105.1","MAVLink 2.0","102","SCALED_IMU"
"56","0.104298679","10.76.105.1","10.244.105.1","MAVLink 2.0","90","SERVO_OUTPUT_RAW"
"57","0.104328215","10.76.105.1","10.244.105.1","MAVLink 2.0","95","VFR_HUD"
"58","0.104384421","10.244.105.1","10.76.105.1","TCP","66","36286  >  5760 [ACK] Seq=1 Ack=2543 Win=9617 Len=0 TSval=2474323102 TSecr=519146646"
"59","0.135058301","10.76.105.1","10.244.105.1","MAVLink 2.0","79","MISSION_CURRENT"
"60","0.135082616","10.76.105.1","10.244.105.1","MAVLink 2.0","106","ATTITUDE"
"61","0.135086731","10.76.105.1","10.244.105.1","MAVLink 2.0","110","ATTITUDE_QUATERNION"
"62","0.135090105","10.76.105.1","10.244.105.1","MAVLink 2.0","139","HIGHRES_IMU"
"63","0.135143630","10.244.105.1","10.76.105.1","TCP","66","36286  >  5760 [ACK] Seq=1 Ack=2713 Win=9617 Len=0 TSval=2474323133 TSecr=519146657"
"64","0.144242846","10.76.105.1","10.244.105.1","MAVLink 2.0","310","ODOMETRY"
"65","0.144271026","10.76.105.1","10.244.105.1","MAVLink 2.0","118","ACTUATOR_CONTROL_TARGET"
"66","0.144276114","10.76.105.1","10.244.105.1","MAVLink 2.0","92","TIMESYNC"
"67","0.144280115","10.76.105.1","10.244.105.1","MAVLink 2.0","110","ALTITUDE"
"68","0.144283541","10.76.105.1","10.244.105.1","MAVLink 2.0","106","ATTITUDE"
"69","0.144286705","10.76.105.1","10.244.105.1","MAVLink 2.0","110","ATTITUDE_QUATERNION"
"70","0.144289936","10.76.105.1","10.244.105.1","MAVLink 2.0","80","EXTENDED_SYS_STATE"
"71","0.144293268","10.76.105.1","10.244.105.1","MAVLink 2.0","140","HIGHRES_IMU"
"72","0.144296482","10.76.105.1","10.244.105.1","MAVLink 2.0","102","SCALED_IMU"
"73","0.144299775","10.76.105.1","10.244.105.1","MAVLink 2.0","99","SERVO_OUTPUT_RAW"
"74","0.144464007","10.244.105.1","10.76.105.1","TCP","66","36286  >  5760 [ACK] Seq=1 Ack=3320 Win=9617 Len=0 TSval=2474323142 TSecr=519146671"
"75","0.175348357","10.76.105.1","10.244.105.1","MAVLink 2.0","106","ATTITUDE"
"76","0.175382763","10.76.105.1","10.244.105.1","MAVLink 2.0","110","ATTITUDE_QUATERNION"
"77","0.175389982","10.76.105.1","10.244.105.1","MAVLink 2.0","140","HIGHRES_IMU"
"78","0.175395579","10.76.105.1","10.244.105.1","MAVLink 2.0","90","SERVO_OUTPUT_RAW"
"79","0.175400970","10.76.105.1","10.244.105.1","MAVLink 2.0","95","VFR_HUD"
"80","0.175515430","10.244.105.1","10.76.105.1","TCP","66","36286  >  5760 [ACK] Seq=1 Ack=3531 Win=9617 Len=0 TSval=2474323173 TSecr=519146699"
"81","0.184581911","10.76.105.1","10.244.105.1","MAVLink 2.0","310","ODOMETRY"
"82","0.184623695","10.76.105.1","10.244.105.1","MAVLink 2.0","118","ACTUATOR_CONTROL_TARGET"
"83","0.184634611","10.76.105.1","10.244.105.1","MAVLink 2.0","110","ATTITUDE_TARGET"
"84","0.184642959","10.76.105.1","10.244.105.1","MAVLink 2.0","120","RC_CHANNELS"
"85","0.184650996","10.76.105.1","10.244.105.1","MAVLink 2.0","106","ATTITUDE"
"86","0.184659089","10.76.105.1","10.244.105.1","MAVLink 2.0","110","ATTITUDE_QUATERNION"
"87","0.184667289","10.76.105.1","10.244.105.1","MAVLink 2.0","140","HIGHRES_IMU"
"88","0.184675620","10.76.105.1","10.244.105.1","MAVLink 2.0","102","SCALED_IMU"
"89","0.184743255","10.244.105.1","10.76.105.1","TCP","66","36286  >  5760 [ACK] Seq=1 Ack=4119 Win=9617 Len=0 TSval=2474323182 TSecr=519146704"
"90","0.193578185","10.76.105.1","10.244.105.1","MAVLink 2.0","310","ODOMETRY"
"91","0.193630966","10.76.105.1","10.244.105.1","MAVLink 2.0","118","ACTUATOR_CONTROL_TARGET"
"92","0.193643715","10.76.105.1","10.244.105.1","MAVLink 2.0","99","SERVO_OUTPUT_RAW"
"93","0.193777779","10.244.105.1","10.76.105.1","TCP","66","36286  >  5760 [ACK] Seq=1 Ack=4448 Win=9617 Len=0 TSval=2474323191 TSecr=519146737"
"94","0.202458156","10.76.105.1","10.244.105.1","MAVLink 2.0","106","ATTITUDE"
"95","0.202523998","10.76.105.1","10.244.105.1","MAVLink 2.0","110","ATTITUDE_QUATERNION"
"96","0.202540009","10.76.105.1","10.244.105.1","MAVLink 2.0","139","HIGHRES_IMU"
"97","0.202645823","10.244.105.1","10.76.105.1","TCP","66","36286  >  5760 [ACK] Seq=1 Ack=4605 Win=9617 Len=0 TSval=2474323200 TSecr=519146740"
"98","0.211329756","10.76.105.1","10.244.105.1","MAVLink 2.0","90","SERVO_OUTPUT_RAW"
"99","0.211371112","10.76.105.1","10.244.105.1","MAVLink 2.0","95","VFR_HUD"
"100","0.211469849","10.244.105.1","10.76.105.1","TCP","66","36286  >  5760 [ACK] Seq=1 Ack=4658 Win=9617 Len=0 TSval=2474323209 TSecr=519146749"
"101","0.220409273","10.76.105.1","10.244.105.1","MAVLink 2.0","79","MISSION_CURRENT"
"102","0.220475791","10.76.105.1","10.244.105.1","MAVLink 2.0","106","ATTITUDE"
"103","0.220639250","10.244.105.1","10.76.105.1","TCP","66","36286  >  5760 [ACK] Seq=1 Ack=4711 Win=9617 Len=0 TSval=2474323218 TSecr=519146757"
"104","0.229480316","10.76.105.1","10.244.105.1","MAVLink 2.0","110","ATTITUDE_QUATERNION"
"105","0.229534687","10.76.105.1","10.244.105.1","MAVLink 2.0","139","HIGHRES_IMU"
"106","0.229548581","10.76.105.1","10.244.105.1","MAVLink 2.0","102","SCALED_IMU"
"107","0.229697615","10.244.105.1","10.76.105.1","TCP","66","36286  >  5760 [ACK] Seq=1 Ack=4864 Win=9617 Len=0 TSval=2474323227 TSecr=519146760"
"108","0.238403142","10.76.105.1","10.244.105.1","MAVLink 2.0","310","ODOMETRY"
"109","0.238450008","10.76.105.1","10.244.105.1","MAVLink 2.0","118","ACTUATOR_CONTROL_TARGET"
"110","0.238461514","10.76.105.1","10.244.105.1","MAVLink 2.0","92","TIMESYNC"
"111","0.238470847","10.76.105.1","10.244.105.1","MAVLink 2.0","110","ALTITUDE"
"112","0.238479538","10.76.105.1","10.244.105.1","MAVLink 2.0","119","ESTIMATOR_STATUS"
"113","0.238488226","10.76.105.1","10.244.105.1","MAVLink 2.0","106","ATTITUDE"
"114","0.238497100","10.76.105.1","10.244.105.1","MAVLink 2.0","110","ATTITUDE_QUATERNION"
"115","0.238628481","10.244.105.1","10.76.105.1","TCP","66","36286  >  5760 [ACK] Seq=1 Ack=5367 Win=9617 Len=0 TSval=2474323236 TSecr=519146770"
"116","0.247638490","10.76.105.1","10.244.105.1","MAVLink 2.0","139","HIGHRES_IMU"
"117","0.247711165","10.76.105.1","10.244.105.1","MAVLink 2.0","98","VIBRATION"
"118","0.247728847","10.76.105.1","10.244.105.1","MAVLink 2.0","99","SERVO_OUTPUT_RAW"
"119","0.247910545","10.244.105.1","10.76.105.1","TCP","66","36286  >  5760 [ACK] Seq=1 Ack=5505 Win=9617 Len=0 TSval=2474323246 TSecr=519146780"
"120","0.256316252","10.76.105.1","10.244.105.1","MAVLink 2.0","106","ATTITUDE"
"121","0.256360190","10.76.105.1","10.244.105.1","MAVLink 2.0","110","ATTITUDE_QUATERNION"
"122","0.256371525","10.76.105.1","10.244.105.1","MAVLink 2.0","140","HIGHRES_IMU"
"123","0.256536870","10.244.105.1","10.76.105.1","TCP","66","36286  >  5760 [ACK] Seq=1 Ack=5663 Win=9617 Len=0 TSval=2474323254 TSecr=519146797"
"124","0.265590380","10.76.105.1","10.244.105.1","MAVLink 2.0","90","SERVO_OUTPUT_RAW"
"125","0.265645168","10.76.105.1","10.244.105.1","MAVLink 2.0","95","VFR_HUD"
"126","0.265658691","10.76.105.1","10.244.105.1","MAVLink 2.0","310","ODOMETRY"
"127","0.265668891","10.76.105.1","10.244.105.1","MAVLink 2.0","118","ACTUATOR_CONTROL_TARGET"
"128","0.265678920","10.76.105.1","10.244.105.1","MAVLink 2.0","102","SCALED_IMU"
"129","0.265850396","10.244.105.1","10.76.105.1","TCP","66","36286  >  5760 [ACK] Seq=1 Ack=6048 Win=9617 Len=0 TSval=2474323263 TSecr=519146798"
"130","0.274562591","10.76.105.1","10.244.105.1","MAVLink 2.0","120","RC_CHANNELS"
"131","0.274624812","10.76.105.1","10.244.105.1","MAVLink 2.0","106","ATTITUDE"
"132","0.274640378","10.76.105.1","10.244.105.1","MAVLink 2.0","110","ATTITUDE_QUATERNION"
"133","0.274653579","10.76.105.1","10.244.105.1","MAVLink 2.0","140","HIGHRES_IMU"
"134","0.275019190","10.244.105.1","10.76.105.1","TCP","66","36286  >  5760 [ACK] Seq=1 Ack=6260 Win=9617 Len=0 TSval=2474323273 TSecr=519146816"
"135","0.283318441","10.76.105.1","10.244.105.1","MAVLink 2.0","110","ATTITUDE_TARGET"
"136","0.283369079","10.76.105.1","10.244.105.1","MAVLink 2.0","123","GPS_RAW_INT"
"137","0.285905474","10.244.105.1","10.76.105.1","TCP","66","36286  >  5760 [ACK] Seq=1 Ack=6361 Win=9617 Len=0 TSval=2474323284 TSecr=519146826"
"138","0.301786077","10.76.105.1","10.244.105.1","MAVLink 2.0","310","ODOMETRY"
"139","0.301842470","10.76.105.1","10.244.105.1","MAVLink 2.0","118","ACTUATOR_CONTROL_TARGET"
"140","0.301856148","10.76.105.1","10.244.105.1","MAVLink 2.0","99","SERVO_OUTPUT_RAW"
"141","0.301866599","10.76.105.1","10.244.105.1","MAVLink 2.0","106","ATTITUDE"
"142","0.301877246","10.76.105.1","10.244.105.1","MAVLink 2.0","110","ATTITUDE_QUATERNION"
"143","0.301984552","10.244.105.1","10.76.105.1","TCP","66","36286  >  5760 [ACK] Seq=1 Ack=6774 Win=9617 Len=0 TSval=2474323300 TSecr=519146837"
"144","0.310480598","10.76.105.1","10.244.105.1","MAVLink 2.0","139","HIGHRES_IMU"
"145","0.310525617","10.76.105.1","10.244.105.1","MAVLink 2.0","102","SCALED_IMU"
"146","0.310537020","10.76.105.1","10.244.105.1","MAVLink 2.0","90","SERVO_OUTPUT_RAW"
"147","0.310546548","10.76.105.1","10.244.105.1","MAVLink 2.0","95","VFR_HUD"
"148","0.310619342","10.244.105.1","10.76.105.1","TCP","66","36286  >  5760 [ACK] Seq=1 Ack=6936 Win=9617 Len=0 TSval=2474323308 TSecr=519146841"
"149","0.319203952","10.76.105.1","10.244.105.1","MAVLink 2.0","79","MISSION_CURRENT"
"150","0.319245212","10.76.105.1","10.244.105.1","MAVLink 2.0","106","ATTITUDE"
"151","0.319260924","10.76.105.1","10.244.105.1","MAVLink 2.0","110","ATTITUDE_QUATERNION"
"152","0.319336683","10.244.105.1","10.76.105.1","TCP","66","36286  >  5760 [ACK] Seq=1 Ack=7033 Win=9617 Len=0 TSval=2474323317 TSecr=519146857"
"153","0.328283484","10.76.105.1","10.244.105.1","MAVLink 2.0","140","HIGHRES_IMU"
"154","0.328321365","10.76.105.1","10.244.105.1","MAVLink 2.0","310","ODOMETRY"
"155","0.328333588","10.76.105.1","10.244.105.1","MAVLink 2.0","118","ACTUATOR_CONTROL_TARGET"
"156","0.330450685","10.244.105.1","10.76.105.1","TCP","66","36286  >  5760 [ACK] Seq=1 Ack=7403 Win=9617 Len=0 TSval=2474323328 TSecr=519146858"
"157","0.337371294","10.76.105.1","10.244.105.1","MAVLink 2.0","92","TIMESYNC"
"158","0.337520493","10.76.105.1","10.244.105.1","MAVLink 2.0","110","ALTITUDE"
"159","0.337562096","10.76.105.1","10.244.105.1","MAVLink 2.0","106","ATTITUDE"
"160","0.337575109","10.76.105.1","10.244.105.1","MAVLink 2.0","110","ATTITUDE_QUATERNION"
"161","0.337586129","10.76.105.1","10.244.105.1","MAVLink 2.0","139","HIGHRES_IMU"
"162","0.337619165","10.244.105.1","10.76.105.1","TCP","66","36286  >  5760 [ACK] Seq=1 Ack=7630 Win=9617 Len=0 TSval=2474323335 TSecr=519146874"
"163","0.346365595","10.76.105.1","10.244.105.1","MAVLink 2.0","102","SCALED_IMU"
"164","0.346406034","10.76.105.1","10.244.105.1","MAVLink 2.0","99","SERVO_OUTPUT_RAW"
"165","0.352755916","10.244.105.1","10.76.105.1","TCP","66","36286  >  5760 [ACK] Seq=1 Ack=7699 Win=9617 Len=0 TSval=2474323350 TSecr=519146888"
"166","0.355262953","10.76.105.1","10.244.105.1","MAVLink 2.0","106","ATTITUDE"
"167","0.355339781","10.76.105.1","10.244.105.1","MAVLink 2.0","110","ATTITUDE_QUATERNION"
"168","0.355509445","10.244.105.1","10.76.105.1","TCP","66","36286  >  5760 [ACK] Seq=1 Ack=7783 Win=9617 Len=0 TSval=2474323353 TSecr=519146899"
"169","0.364362392","10.76.105.1","10.244.105.1","MAVLink 2.0","140","HIGHRES_IMU"
"170","0.364420474","10.76.105.1","10.244.105.1","MAVLink 2.0","90","SERVO_OUTPUT_RAW"
"171","0.364446770","10.76.105.1","10.244.105.1","MAVLink 2.0","95","VFR_HUD"
"172","0.370216590","10.244.105.1","10.76.105.1","TCP","66","36286  >  5760 [ACK] Seq=1 Ack=7910 Win=9617 Len=0 TSval=2474323368 TSecr=519146900"
"173","0.373644004","10.76.105.1","10.244.105.1","MAVLink 2.0","310","ODOMETRY"
"174","0.373689264","10.76.105.1","10.244.105.1","MAVLink 2.0","118","ACTUATOR_CONTROL_TARGET"
"175","0.373701680","10.76.105.1","10.244.105.1","MAVLink 2.0","120","RC_CHANNELS"
"176","0.373825848","10.244.105.1","10.76.105.1","TCP","66","36286  >  5760 [ACK] Seq=1 Ack=8260 Win=9617 Len=0 TSval=2474323371 TSecr=519146904"
"177","0.382099631","10.76.105.1","10.244.105.1","MAVLink 2.0","106","ATTITUDE"
"178","0.382148377","10.76.105.1","10.244.105.1","MAVLink 2.0","110","ATTITUDE_QUATERNION"
"179","0.382229361","10.76.105.1","10.244.105.1","MAVLink 2.0","139","HIGHRES_IMU"
"180","0.382322452","10.244.105.1","10.76.105.1","TCP","66","36286  >  5760 [ACK] Seq=1 Ack=8417 Win=9617 Len=0 TSval=2474323380 TSecr=519146919"
"181","0.391269850","10.76.105.1","10.244.105.1","MAVLink 2.0","102","SCALED_IMU"
"182","0.391310986","10.76.105.1","10.244.105.1","MAVLink 2.0","310","ODOMETRY"
"183","0.391328366","10.76.105.1","10.244.105.1","MAVLink 2.0","118","ACTUATOR_CONTROL_TARGET"
"184","0.393085472","10.244.105.1","10.76.105.1","TCP","66","36286  >  5760 [ACK] Seq=1 Ack=8749 Win=9617 Len=0 TSval=2474323391 TSecr=519146926"
"185","0.400438658","10.76.105.1","10.244.105.1","MAVLink 2.0","99","SERVO_OUTPUT_RAW"
"186","0.400491315","10.76.105.1","10.244.105.1","MAVLink 2.0","106","ATTITUDE"
"187","0.400512129","10.76.105.1","10.244.105.1","MAVLink 2.0","110","ATTITUDE_QUATERNION"
"188","0.400528546","10.76.105.1","10.244.105.1","MAVLink 2.0","139","HIGHRES_IMU"
"189","0.400680734","10.244.105.1","10.76.105.1","TCP","66","36286  >  5760 [ACK] Seq=1 Ack=8939 Win=9617 Len=0 TSval=2474323398 TSecr=519146937"
"190","0.409416477","10.76.105.1","10.244.105.1","MAVLink 2.0","90","SERVO_OUTPUT_RAW"
"191","0.409456444","10.76.105.1","10.244.105.1","MAVLink 2.0","95","VFR_HUD"
"192","0.409469843","10.76.105.1","10.244.105.1","MAVLink 2.0","110","ATTITUDE_TARGET"
"193","0.415861939","10.244.105.1","10.76.105.1","TCP","66","36286  >  5760 [ACK] Seq=1 Ack=9036 Win=9617 Len=0 TSval=2474323414 TSecr=519146950"
"194","0.418276044","10.76.105.1","10.244.105.1","MAVLink 2.0","79","MISSION_CURRENT"
"195","0.418335827","10.76.105.1","10.244.105.1","MAVLink 2.0","106","ATTITUDE"
"196","0.418358127","10.76.105.1","10.244.105.1","MAVLink 2.0","110","ATTITUDE_QUATERNION"
"197","0.418495826","10.244.105.1","10.76.105.1","TCP","66","36286  >  5760 [ACK] Seq=1 Ack=9133 Win=9617 Len=0 TSval=2474323416 TSecr=519146958"
"198","0.427301895","10.76.105.1","10.244.105.1","MAVLink 2.0","140","HIGHRES_IMU"
"199","0.427349855","10.76.105.1","10.244.105.1","MAVLink 2.0","310","ODOMETRY"
"200","0.427416654","10.244.105.1","10.76.105.1","TCP","66","36286  >  5760 [ACK] Seq=1 Ack=9451 Win=9617 Len=0 TSval=2474323425 TSecr=519146958"
"201","0.436394691","10.76.105.1","10.244.105.1","MAVLink 2.0","118","ACTUATOR_CONTROL_TARGET"
"202","0.436442640","10.76.105.1","10.244.105.1","MAVLink 2.0","102","SCALED_IMU"
"203","0.436460370","10.76.105.1","10.244.105.1","MAVLink 2.0","92","TIMESYNC"
"204","0.436475357","10.76.105.1","10.244.105.1","MAVLink 2.0","110","ALTITUDE"
"205","0.436489566","10.76.105.1","10.244.105.1","MAVLink 2.0","106","ATTITUDE"
"206","0.436503341","10.76.105.1","10.244.105.1","MAVLink 2.0","110","ATTITUDE_QUATERNION"
"207","0.436517460","10.76.105.1","10.244.105.1","MAVLink 2.0","119","ESTIMATOR_STATUS"
"208","0.436602550","10.244.105.1","10.76.105.1","TCP","66","36286  >  5760 [ACK] Seq=1 Ack=9746 Win=9617 Len=0 TSval=2474323434 TSecr=519146968"
"209","0.445396621","10.76.105.1","10.244.105.1","MAVLink 2.0","139","HIGHRES_IMU"
"210","0.445455687","10.76.105.1","10.244.105.1","MAVLink 2.0","99","SERVO_OUTPUT_RAW"
"211","0.445581559","10.244.105.1","10.76.105.1","TCP","66","36286  >  5760 [ACK] Seq=1 Ack=9852 Win=9617 Len=0 TSval=2474323443 TSecr=519146978"
"212","0.454195423","10.76.105.1","10.244.105.1","MAVLink 2.0","106","ATTITUDE"
"213","0.463227369","10.76.105.1","10.244.105.1","MAVLink 2.0","110","ATTITUDE_QUATERNION"
"214","0.463430188","10.244.105.1","10.76.105.1","TCP","66","36286  >  5760 [ACK] Seq=1 Ack=9936 Win=9617 Len=0 TSval=2474323461 TSecr=519146999"
"215","0.472521897","10.76.105.1","10.244.105.1","MAVLink 2.0","140","HIGHRES_IMU"
"216","0.472555914","10.76.105.1","10.244.105.1","MAVLink 2.0","90","SERVO_OUTPUT_RAW"
"217","0.472567401","10.76.105.1","10.244.105.1","MAVLink 2.0","95","VFR_HUD"
"218","0.472577746","10.76.105.1","10.244.105.1","MAVLink 2.0","310","ODOMETRY"
"219","0.472587193","10.76.105.1","10.244.105.1","MAVLink 2.0","118","ACTUATOR_CONTROL_TARGET"
"220","0.472596161","10.76.105.1","10.244.105.1","MAVLink 2.0","102","SCALED_IMU"
"221","0.472605518","10.76.105.1","10.244.105.1","MAVLink 2.0","120","RC_CHANNELS"
"222","0.472731535","10.244.105.1","10.76.105.1","TCP","66","36286  >  5760 [ACK] Seq=1 Ack=10449 Win=9617 Len=0 TSval=2474323470 TSecr=519147000"
"223","0.481261625","10.76.105.1","10.244.105.1","MAVLink 2.0","106","ATTITUDE"
"224","0.481287693","10.76.105.1","10.244.105.1","MAVLink 2.0","110","ATTITUDE_QUATERNION"
"225","0.481298535","10.76.105.1","10.244.105.1","MAVLink 2.0","139","HIGHRES_IMU"
"226","0.481307458","10.76.105.1","10.244.105.1","MAVLink 2.0","123","GPS_RAW_INT"
"227","0.481397315","10.244.105.1","10.76.105.1","TCP","66","36286  >  5760 [ACK] Seq=1 Ack=10663 Win=9617 Len=0 TSval=2474323479 TSecr=519147018"
"228","0.499426056","10.76.105.1","10.244.105.1","MAVLink 2.0","310","ODOMETRY"
"229","0.499478177","10.76.105.1","10.244.105.1","MAVLink 2.0","118","ACTUATOR_CONTROL_TARGET"
"230","0.499495191","10.76.105.1","10.244.105.1","MAVLink 2.0","99","SERVO_OUTPUT_RAW"
"231","0.499654470","10.244.105.1","10.76.105.1","TCP","66","36286  >  5760 [ACK] Seq=1 Ack=10992 Win=9617 Len=0 TSval=2474323497 TSecr=519147037"
"232","0.508192815","10.76.105.1","10.244.105.1","MAVLink 2.0","106","ATTITUDE"
"233","0.508230150","10.76.105.1","10.244.105.1","MAVLink 2.0","110","ATTITUDE_QUATERNION"
"234","0.508244585","10.76.105.1","10.244.105.1","MAVLink 2.0","139","HIGHRES_IMU"
"235","0.508256026","10.76.105.1","10.244.105.1","MAVLink 2.0","102","SCALED_IMU"
"236","0.508267215","10.76.105.1","10.244.105.1","MAVLink 2.0","90","SERVO_OUTPUT_RAW"
"237","0.508279121","10.76.105.1","10.244.105.1","MAVLink 2.0","95","VFR_HUD"
"238","0.508384393","10.244.105.1","10.76.105.1","TCP","66","36286  >  5760 [ACK] Seq=1 Ack=11238 Win=9617 Len=0 TSval=2474323506 TSecr=519147039"
"239","0.517514643","10.76.105.1","10.244.105.1","MAVLink 2.0","106","ATTITUDE"
"240","0.517528045","10.76.105.1","10.244.105.1","MAVLink 2.0","110","ATTITUDE_QUATERNION"
"241","0.517531956","10.76.105.1","10.244.105.1","MAVLink 2.0","139","HIGHRES_IMU"
"242","0.517606288","10.244.105.1","10.76.105.1","TCP","66","36286  >  5760 [ACK] Seq=1 Ack=11395 Win=9617 Len=0 TSval=2474323515 TSecr=519147058"
"243","0.526025327","10.76.105.1","10.244.105.1","MAVLink 2.0","310","ODOMETRY"
"244","0.526043198","10.76.105.1","10.244.105.1","MAVLink 2.0","79","MISSION_CURRENT"
"245","0.526182498","10.244.105.1","10.76.105.1","TCP","66","36286  >  5760 [ACK] Seq=1 Ack=11652 Win=9617 Len=0 TSval=2474323524 TSecr=519147068"
"246","0.535111178","10.76.105.1","10.244.105.1","MAVLink 2.0","118","ACTUATOR_CONTROL_TARGET"
"247","0.535124360","10.76.105.1","10.244.105.1","MAVLink 2.0","92","TIMESYNC"
"248","0.535129483","10.76.105.1","10.244.105.1","MAVLink 2.0","110","ALTITUDE"
"249","0.535133845","10.76.105.1","10.244.105.1","MAVLink 2.0","106","ATTITUDE"
"250","0.535138028","10.76.105.1","10.244.105.1","MAVLink 2.0","110","ATTITUDE_QUATERNION"
"251","0.535272917","10.244.105.1","10.76.105.1","TCP","66","36286  >  5760 [ACK] Seq=1 Ack=11858 Win=9617 Len=0 TSval=2474323533 TSecr=519147068"
"252","0.543987015","10.76.105.1","10.244.105.1","MAVLink 2.0","110","ATTITUDE_TARGET"
"253","0.544005672","10.76.105.1","10.244.105.1","MAVLink 2.0","139","HIGHRES_IMU"
"254","0.544014625","10.76.105.1","10.244.105.1","MAVLink 2.0","102","SCALED_IMU"
"255","0.544021007","10.76.105.1","10.244.105.1","MAVLink 2.0","99","SERVO_OUTPUT_RAW"
"256","0.544171422","10.244.105.1","10.76.105.1","TCP","66","36286  >  5760 [ACK] Seq=1 Ack=12044 Win=9617 Len=0 TSval=2474323542 TSecr=519147078"
"257","0.553078570","10.76.105.1","10.244.105.1","MAVLink 2.0","106","ATTITUDE"
"258","0.553097932","10.76.105.1","10.244.105.1","MAVLink 2.0","110","ATTITUDE_QUATERNION"
"259","0.553107514","10.76.105.1","10.244.105.1","MAVLink 2.0","140","HIGHRES_IMU"
"260","0.553294632","10.244.105.1","10.76.105.1","TCP","66","36286  >  5760 [ACK] Seq=1 Ack=12202 Win=9617 Len=0 TSval=2474323551 TSecr=519147098"
"261","0.562256548","10.76.105.1","10.244.105.1","MAVLink 2.0","90","SERVO_OUTPUT_RAW"
"262","0.562279839","10.76.105.1","10.244.105.1","MAVLink 2.0","95","VFR_HUD"
"263","0.562291766","10.76.105.1","10.244.105.1","MAVLink 2.0","310","ODOMETRY"
"264","0.562301800","10.76.105.1","10.244.105.1","MAVLink 2.0","118","ACTUATOR_CONTROL_TARGET"
"265","0.564959707","10.244.105.1","10.76.105.1","TCP","66","36286  >  5760 [ACK] Seq=1 Ack=12551 Win=9617 Len=0 TSval=2474323563 TSecr=519147098"
"266","0.571351144","10.76.105.1","10.244.105.1","MAVLink 2.0","120","RC_CHANNELS"
"267","0.580559597","10.76.105.1","10.244.105.1","MAVLink 2.0","106","ATTITUDE"
"268","0.580631975","10.244.105.1","10.76.105.1","TCP","66","36286  >  5760 [ACK] Seq=1 Ack=12645 Win=9617 Len=0 TSval=2474323578 TSecr=519147116"
"269","0.589200826","10.76.105.1","10.244.105.1","MAVLink 2.0","110","ATTITUDE_QUATERNION"
"270","0.589274163","10.76.105.1","10.244.105.1","MAVLink 2.0","140","HIGHRES_IMU"
"271","0.589286327","10.76.105.1","10.244.105.1","MAVLink 2.0","102","SCALED_IMU"
"272","0.589343699","10.244.105.1","10.76.105.1","TCP","66","36286  >  5760 [ACK] Seq=1 Ack=12799 Win=9617 Len=0 TSval=2474323587 TSecr=519147119"
"273","0.598686969","10.76.105.1","10.244.105.1","MAVLink 2.0","310","ODOMETRY"
"274","0.598717254","10.76.105.1","10.244.105.1","MAVLink 2.0","118","ACTUATOR_CONTROL_TARGET"
"275","0.598729256","10.76.105.1","10.244.105.1","MAVLink 2.0","99","SERVO_OUTPUT_RAW"
"276","0.598742023","10.244.105.1","10.76.105.1","TCP","66","36286  >  5760 [ACK] Seq=1 Ack=13095 Win=9617 Len=0 TSval=2474323596 TSecr=519147137"
"277","0.598743063","10.76.105.1","10.244.105.1","MAVLink 2.0","106","ATTITUDE"
"278","0.598757494","10.76.105.1","10.244.105.1","MAVLink 2.0","110","ATTITUDE_QUATERNION"
"279","0.598793037","10.76.105.1","10.244.105.1","MAVLink 2.0","140","HIGHRES_IMU"
"280","0.598817676","10.244.105.1","10.76.105.1","TCP","66","36286  >  5760 [ACK] Seq=1 Ack=13286 Win=9617 Len=0 TSval=2474323596 TSecr=519147137"
"281","0.602549516","10.76.105.1","10.244.105.1","MAVLink 2.0","90","SERVO_OUTPUT_RAW"
"282","0.603500905","10.76.105.1","10.244.105.1","MAVLink 2.0","95","VFR_HUD"
"283","0.603545257","10.244.105.1","10.76.105.1","TCP","66","36286  >  5760 [ACK] Seq=1 Ack=13339 Win=9617 Len=0 TSval=2474323601 TSecr=519147148"
"284","0.615309317","10.76.105.1","10.244.105.1","MAVLink 2.0","106","ATTITUDE"
"285","0.615332764","10.76.105.1","10.244.105.1","MAVLink 2.0","110","ATTITUDE_QUATERNION"
"286","0.615341955","10.76.105.1","10.244.105.1","MAVLink 2.0","139","HIGHRES_IMU"
"287","0.615358337","10.244.105.1","10.76.105.1","TCP","66","36286  >  5760 [ACK] Seq=1 Ack=13496 Win=9617 Len=0 TSval=2474323613 TSecr=519147158"
"288","0.624102140","10.76.105.1","10.244.105.1","MAVLink 2.0","102","SCALED_IMU"
"289","0.624129894","10.76.105.1","10.244.105.1","MAVLink 2.0","79","MISSION_CURRENT"
"290","0.624151863","10.244.105.1","10.76.105.1","TCP","66","36286  >  5760 [ACK] Seq=1 Ack=13545 Win=9617 Len=0 TSval=2474323622 TSecr=519147168"
"291","0.642822575","10.76.105.1","10.244.105.1","MAVLink 2.0","310","ODOMETRY"
"292","0.642890901","10.76.105.1","10.244.105.1","MAVLink 2.0","118","ACTUATOR_CONTROL_TARGET"
"293","0.642914679","10.76.105.1","10.244.105.1","MAVLink 2.0","87","HEARTBEAT"
"294","0.642935911","10.76.105.1","10.244.105.1","MAVLink 2.0","92","TIMESYNC"
"295","0.642954536","10.76.105.1","10.244.105.1","MAVLink 2.0","110","ALTITUDE"
"296","0.642973748","10.76.105.1","10.244.105.1","MAVLink 2.0","106","ATTITUDE"
"297","0.642983345","10.244.105.1","10.76.105.1","TCP","66","36286  >  5760 [ACK] Seq=1 Ack=13932 Win=9617 Len=0 TSval=2474323641 TSecr=519147171"
"298","0.642993781","10.76.105.1","10.244.105.1","MAVLink 2.0","110","ATTITUDE_QUATERNION"
"299","0.643014484","10.76.105.1","10.244.105.1","MAVLink 2.0","127","BATTERY_STATUS"
"300","0.643080240","10.76.105.1","10.244.105.1","MAVLink 2.0","119","ESTIMATOR_STATUS"
"301","0.643101711","10.76.105.1","10.244.105.1","MAVLink 2.0","80","EXTENDED_SYS_STATE"
"302","0.643120976","10.76.105.1","10.244.105.1","MAVLink 2.0","139","HIGHRES_IMU"
"303","0.643139168","10.76.105.1","10.244.105.1","MAVLink 2.0","88","PING"
"304","0.643156711","10.76.105.1","10.244.105.1","MAVLink 2.0","109","SYS_STATUS"
"305","0.643174944","10.76.105.1","10.244.105.1","MAVLink 2.0","89","SYSTEM_TIME"
"306","0.643303698","10.244.105.1","10.76.105.1","TCP","66","36286  >  5760 [ACK] Seq=1 Ack=14305 Win=9617 Len=0 TSval=2474323641 TSecr=519147178"
"307","0.643611572","10.244.105.1","10.76.105.1","MAVLink 2.0","92","PING"
"308","0.651582008","10.76.105.1","10.244.105.1","MAVLink 2.0","98","VIBRATION"
"309","0.651633076","10.76.105.1","10.244.105.1","MAVLink 2.0","100","LINK_NODE_STATUS"
"310","0.651650804","10.76.105.1","10.244.105.1","MAVLink 2.0","99","SERVO_OUTPUT_RAW"
"311","0.651674321","10.244.105.1","10.76.105.1","TCP","66","36286  >  5760 [ACK] Seq=27 Ack=14404 Win=9617 Len=0 TSval=2474323649 TSecr=519147181"
"312","0.660688784","10.76.105.1","10.244.105.1","MAVLink 2.0","106","ATTITUDE"
"313","0.660739105","10.76.105.1","10.244.105.1","MAVLink 2.0","110","ATTITUDE_QUATERNION"
"314","0.660751530","10.76.105.1","10.244.105.1","MAVLink 2.0","140","HIGHRES_IMU"
"315","0.660759748","10.76.105.1","10.244.105.1","MAVLink 2.0","90","SERVO_OUTPUT_RAW"
"316","0.660768175","10.76.105.1","10.244.105.1","MAVLink 2.0","95","VFR_HUD"
"317","0.660777267","10.76.105.1","10.244.105.1","MAVLink 2.0","310","ODOMETRY"
"318","0.660785759","10.76.105.1","10.244.105.1","MAVLink 2.0","118","ACTUATOR_CONTROL_TARGET"
"319","0.660794353","10.76.105.1","10.244.105.1","MAVLink 2.0","110","ATTITUDE_TARGET"
"320","0.660901429","10.244.105.1","10.76.105.1","TCP","66","36286  >  5760 [ACK] Seq=27 Ack=14955 Win=9617 Len=0 TSval=2474323659 TSecr=519147199"
"321","0.669558375","10.76.105.1","10.244.105.1","MAVLink 2.0","102","SCALED_IMU"
"322","0.678385053","10.76.105.1","10.244.105.1","MAVLink 2.0","106","ATTITUDE"
"323","0.678479438","10.244.105.1","10.76.105.1","TCP","66","36286  >  5760 [ACK] Seq=27 Ack=15031 Win=9617 Len=0 TSval=2474323676 TSecr=519147208"
"324","0.687435593","10.76.105.1","10.244.105.1","MAVLink 2.0","110","ATTITUDE_QUATERNION"
"325","0.687487631","10.76.105.1","10.244.105.1","MAVLink 2.0","140","HIGHRES_IMU"
"326","0.687505534","10.76.105.1","10.244.105.1","MAVLink 2.0","120","RC_CHANNELS"
"327","0.687521042","10.76.105.1","10.244.105.1","MAVLink 2.0","123","GPS_RAW_INT"
"328","0.687607644","10.244.105.1","10.76.105.1","TCP","66","36286  >  5760 [ACK] Seq=27 Ack=15260 Win=9617 Len=0 TSval=2474323685 TSecr=519147218"
"329","0.696236108","10.76.105.1","10.244.105.1","MAVLink 2.0","310","ODOMETRY"
"330","0.696279994","10.76.105.1","10.244.105.1","MAVLink 2.0","118","ACTUATOR_CONTROL_TARGET"
"331","0.696295973","10.76.105.1","10.244.105.1","MAVLink 2.0","99","SERVO_OUTPUT_RAW"
"332","0.696400247","10.244.105.1","10.76.105.1","TCP","66","36286  >  5760 [ACK] Seq=27 Ack=15589 Win=9617 Len=0 TSval=2474323694 TSecr=519147237"
"333","0.705573180","10.76.105.1","10.244.105.1","MAVLink 2.0","106","ATTITUDE"
"334","0.705637974","10.76.105.1","10.244.105.1","MAVLink 2.0","110","ATTITUDE_QUATERNION"
"335","0.705663026","10.76.105.1","10.244.105.1","MAVLink 2.0","140","HIGHRES_IMU"
"336","0.705682929","10.76.105.1","10.244.105.1","MAVLink 2.0","102","SCALED_IMU"
"337","0.705702357","10.76.105.1","10.244.105.1","MAVLink 2.0","90","SERVO_OUTPUT_RAW"
"338","0.705722233","10.76.105.1","10.244.105.1","MAVLink 2.0","95","VFR_HUD"
"339","0.705736259","10.244.105.1","10.76.105.1","TCP","66","36286  >  5760 [ACK] Seq=27 Ack=15783 Win=9616 Len=0 TSval=2474323703 TSecr=519147240"
"340","0.714412455","10.76.105.1","10.244.105.1","MAVLink 2.0","106","ATTITUDE"
"341","0.714464962","10.76.105.1","10.244.105.1","MAVLink 2.0","110","ATTITUDE_QUATERNION"
"342","0.714486128","10.76.105.1","10.244.105.1","MAVLink 2.0","139","HIGHRES_IMU"
"343","0.715202435","10.244.105.1","10.76.105.1","TCP","66","36286  >  5760 [ACK] Seq=27 Ack=15993 Win=9617 Len=0 TSval=2474323713 TSecr=519147249"
"344","0.735651425","10.76.105.1","10.244.105.1","MAVLink 2.0","310","ODOMETRY"
"345","0.735720614","10.76.105.1","10.244.105.1","MAVLink 2.0","118","ACTUATOR_CONTROL_TARGET"
"346","0.735789433","10.76.105.1","10.244.105.1","MAVLink 2.0","92","TIMESYNC"
"347","0.735947654","10.244.105.1","10.76.105.1","TCP","66","36286  >  5760 [ACK] Seq=27 Ack=16315 Win=9617 Len=0 TSval=2474323734 TSecr=519147271"
"348","0.744533100","10.76.105.1","10.244.105.1","MAVLink 2.0","79","MISSION_CURRENT"
"349","0.744559776","10.76.105.1","10.244.105.1","MAVLink 2.0","110","ALTITUDE"
"350","0.744573368","10.76.105.1","10.244.105.1","MAVLink 2.0","106","ATTITUDE"
"351","0.744587861","10.76.105.1","10.244.105.1","MAVLink 2.0","110","ATTITUDE_QUATERNION"
"352","0.744601234","10.76.105.1","10.244.105.1","MAVLink 2.0","140","HIGHRES_IMU"
"353","0.744613520","10.76.105.1","10.244.105.1","MAVLink 2.0","102","SCALED_IMU"
"354","0.744660156","10.76.105.1","10.244.105.1","MAVLink 2.0","99","SERVO_OUTPUT_RAW"
"355","0.746503182","10.244.105.1","10.76.105.1","TCP","66","36286  >  5760 [ACK] Seq=27 Ack=16599 Win=9617 Len=0 TSval=2474323744 TSecr=519147276"
"356","0.753184466","10.76.105.1","10.244.105.1","MAVLink 2.0","106","ATTITUDE"
"357","0.753204883","10.76.105.1","10.244.105.1","MAVLink 2.0","110","ATTITUDE_QUATERNION"
"358","0.753215091","10.76.105.1","10.244.105.1","MAVLink 2.0","140","HIGHRES_IMU"
"359","0.753223887","10.76.105.1","10.244.105.1","MAVLink 2.0","90","SERVO_OUTPUT_RAW"
"360","0.753232406","10.76.105.1","10.244.105.1","MAVLink 2.0","95","VFR_HUD"
"361","0.762287944","10.76.105.1","10.244.105.1","MAVLink 2.0","310","ODOMETRY"
"362","0.762313455","10.76.105.1","10.244.105.1","MAVLink 2.0","118","ACTUATOR_CONTROL_TARGET"
"363","0.762948581","10.244.105.1","10.76.105.1","TCP","66","36286  >  5760 [ACK] Seq=27 Ack=17106 Win=9617 Len=0 TSval=2474323761 TSecr=519147298"
"364","0.771448027","10.76.105.1","10.244.105.1","MAVLink 2.0","120","RC_CHANNELS"
"365","0.780113809","10.76.105.1","10.244.105.1","MAVLink 2.0","106","ATTITUDE"
"366","0.780289823","10.244.105.1","10.76.105.1","TCP","66","36286  >  5760 [ACK] Seq=27 Ack=17200 Win=9617 Len=0 TSval=2474323778 TSecr=519147316"
"367","0.789351846","10.76.105.1","10.244.105.1","MAVLink 2.0","110","ATTITUDE_QUATERNION"
"368","0.789377422","10.76.105.1","10.244.105.1","MAVLink 2.0","140","HIGHRES_IMU"
"369","0.789388487","10.76.105.1","10.244.105.1","MAVLink 2.0","110","ATTITUDE_TARGET"
"370","0.789458437","10.244.105.1","10.76.105.1","TCP","66","36286  >  5760 [ACK] Seq=27 Ack=17362 Win=9617 Len=0 TSval=2474323787 TSecr=519147319"
"371","0.798413188","10.76.105.1","10.244.105.1","MAVLink 2.0","102","SCALED_IMU"
"372","0.798468014","10.76.105.1","10.244.105.1","MAVLink 2.0","310","ODOMETRY"
"373","0.798481938","10.76.105.1","10.244.105.1","MAVLink 2.0","118","ACTUATOR_CONTROL_TARGET"
"374","0.798555438","10.244.105.1","10.76.105.1","TCP","66","36286  >  5760 [ACK] Seq=27 Ack=17694 Win=9617 Len=0 TSval=2474323796 TSecr=519147326"
"375","0.807858049","10.76.105.1","10.244.105.1","MAVLink 2.0","99","SERVO_OUTPUT_RAW"
"376","0.807919887","10.76.105.1","10.244.105.1","MAVLink 2.0","106","ATTITUDE"
"377","0.807944830","10.76.105.1","10.244.105.1","MAVLink 2.0","110","ATTITUDE_QUATERNION"
"378","0.807964616","10.76.105.1","10.244.105.1","MAVLink 2.0","139","HIGHRES_IMU"
"379","0.807984075","10.76.105.1","10.244.105.1","MAVLink 2.0","90","SERVO_OUTPUT_RAW"
"380","0.808002856","10.76.105.1","10.244.105.1","MAVLink 2.0","95","VFR_HUD"
"381","0.808031019","10.244.105.1","10.76.105.1","TCP","66","36286  >  5760 [ACK] Seq=27 Ack=17908 Win=9616 Len=0 TSval=2474323806 TSecr=519147337"
"382","0.816159323","10.76.105.1","10.244.105.1","MAVLink 2.0","106","ATTITUDE"
"383","0.816190069","10.76.105.1","10.244.105.1","MAVLink 2.0","110","ATTITUDE_QUATERNION"
"384","0.816204107","10.76.105.1","10.244.105.1","MAVLink 2.0","139","HIGHRES_IMU"
"385","0.817482307","10.244.105.1","10.76.105.1","TCP","66","36286  >  5760 [ACK] Seq=27 Ack=18094 Win=9617 Len=0 TSval=2474323815 TSecr=519147348"
"386","0.825250245","10.76.105.1","10.244.105.1","MAVLink 2.0","102","SCALED_IMU"
"387","0.843807752","10.76.105.1","10.244.105.1","MAVLink 2.0","310","ODOMETRY"
"388","0.843930995","10.244.105.1","10.76.105.1","TCP","66","36286  >  5760 [ACK] Seq=27 Ack=18374 Win=9617 Len=0 TSval=2474323842 TSecr=519147368"
"389","0.843997467","10.76.105.1","10.244.105.1","MAVLink 2.0","118","ACTUATOR_CONTROL_TARGET"
"390","0.844152398","10.76.105.1","10.244.105.1","MAVLink 2.0","92","TIMESYNC"
"391","0.844203260","10.76.105.1","10.244.105.1","MAVLink 2.0","110","ALTITUDE"
"392","0.844222822","10.76.105.1","10.244.105.1","MAVLink 2.0","106","ATTITUDE"
"393","0.844243577","10.76.105.1","10.244.105.1","MAVLink 2.0","110","ATTITUDE_QUATERNION"
"394","0.844273791","10.76.105.1","10.244.105.1","MAVLink 2.0","119","ESTIMATOR_STATUS"
"395","0.844308885","10.76.105.1","10.244.105.1","MAVLink 2.0","140","HIGHRES_IMU"
"396","0.844325889","10.76.105.1","10.244.105.1","MAVLink 2.0","99","SERVO_OUTPUT_RAW"
"397","0.844348113","10.76.105.1","10.244.105.1","MAVLink 2.0","79","MISSION_CURRENT"
"398","0.844519759","10.244.105.1","10.76.105.1","TCP","66","36286  >  5760 [ACK] Seq=27 Ack=18753 Win=9617 Len=0 TSval=2474323842 TSecr=519147372"
"399","0.861236046","10.76.105.1","10.244.105.1","MAVLink 2.0","106","ATTITUDE"
"400","0.861408271","10.76.105.1","10.244.105.1","MAVLink 2.0","110","ATTITUDE_QUATERNION"
"401","0.861450324","10.76.105.1","10.244.105.1","MAVLink 2.0","140","HIGHRES_IMU"
"402","0.861462101","10.76.105.1","10.244.105.1","MAVLink 2.0","90","SERVO_OUTPUT_RAW"
"403","0.861471066","10.76.105.1","10.244.105.1","MAVLink 2.0","95","VFR_HUD"
"404","0.861536148","10.244.105.1","10.76.105.1","TCP","66","36286  >  5760 [ACK] Seq=27 Ack=18964 Win=9617 Len=0 TSval=2474323859 TSecr=519147399"
"405","0.870451187","10.76.105.1","10.244.105.1","MAVLink 2.0","310","ODOMETRY"
"406","0.870488664","10.76.105.1","10.244.105.1","MAVLink 2.0","118","ACTUATOR_CONTROL_TARGET"
"407","0.870500025","10.76.105.1","10.244.105.1","MAVLink 2.0","102","SCALED_IMU"
"408","0.873386234","10.244.105.1","10.76.105.1","TCP","66","36286  >  5760 [ACK] Seq=27 Ack=19296 Win=9617 Len=0 TSval=2474323871 TSecr=519147404"
"409","0.879215265","10.76.105.1","10.244.105.1","MAVLink 2.0","106","ATTITUDE"
"410","0.879259435","10.76.105.1","10.244.105.1","MAVLink 2.0","110","ATTITUDE_QUATERNION"
"411","0.879271540","10.76.105.1","10.244.105.1","MAVLink 2.0","140","HIGHRES_IMU"
"412","0.879280912","10.76.105.1","10.244.105.1","MAVLink 2.0","120","RC_CHANNELS"
"413","0.879318769","10.244.105.1","10.76.105.1","TCP","66","36286  >  5760 [ACK] Seq=27 Ack=19508 Win=9617 Len=0 TSval=2474323877 TSecr=519147417"
"414","0.888471081","10.76.105.1","10.244.105.1","MAVLink 2.0","123","GPS_RAW_INT"
"415","0.906030723","fe80::216:3eff:fedf:6c0f","ff02::fb","MDNS","108","Standard query 0x0000 PTR _services._dns-sd._udp.local, ""QM"" question"
"416","0.906468864","10.76.105.1","10.244.105.1","MAVLink 2.0","310","ODOMETRY"
"417","0.906530660","10.76.105.1","10.244.105.1","MAVLink 2.0","118","ACTUATOR_CONTROL_TARGET"
"418","0.906561255","10.76.105.1","10.244.105.1","MAVLink 2.0","106","ATTITUDE"
"419","0.906576816","10.76.105.1","10.244.105.1","MAVLink 2.0","110","ATTITUDE_QUATERNION"
"420","0.906599593","10.76.105.1","10.244.105.1","MAVLink 2.0","139","HIGHRES_IMU"
"421","0.906610097","10.76.105.1","10.244.105.1","MAVLink 2.0","99","SERVO_OUTPUT_RAW"
"422","0.906620621","10.76.105.1","10.244.105.1","MAVLink 2.0","102","SCALED_IMU"
"423","0.915353223","10.76.105.1","10.244.105.1","MAVLink 2.0","90","SERVO_OUTPUT_RAW"
"424","0.915386663","10.76.105.1","10.244.105.1","MAVLink 2.0","95","VFR_HUD"
"425","0.915400860","10.76.105.1","10.244.105.1","MAVLink 2.0","110","ATTITUDE_TARGET"
"426","0.915413511","10.76.105.1","10.244.105.1","MAVLink 2.0","106","ATTITUDE"
"427","0.915425187","10.76.105.1","10.244.105.1","MAVLink 2.0","110","ATTITUDE_QUATERNION"
"428","0.915437028","10.76.105.1","10.244.105.1","MAVLink 2.0","139","HIGHRES_IMU"
"429","0.926666311","10.244.105.1","10.76.105.1","TCP","66","36286  >  5760 [ACK] Seq=27 Ack=20341 Win=9617 Len=0 TSval=2474323924 TSecr=519147424"
"430","0.926932757","10.244.105.1","10.76.105.1","MAVLink 2.0","87","HEARTBEAT"
"431","0.935215635","10.76.105.1","10.244.105.1","MAVLink 2.0","310","ODOMETRY"
"432","0.935255256","10.76.105.1","10.244.105.1","MAVLink 2.0","118","ACTUATOR_CONTROL_TARGET"
"433","0.935265440","10.76.105.1","10.244.105.1","MAVLink 2.0","92","TIMESYNC"
"434","0.935279962","10.244.105.1","10.76.105.1","TCP","66","36286  >  5760 [ACK] Seq=48 Ack=20637 Win=9615 Len=0 TSval=2474323933 TSecr=519147471"
"435","0.944315303","10.76.105.1","10.244.105.1","MAVLink 2.0","110","ALTITUDE"
"436","0.944346045","10.76.105.1","10.244.105.1","MAVLink 2.0","106","ATTITUDE"
"437","0.944354284","10.76.105.1","10.244.105.1","MAVLink 2.0","110","ATTITUDE_QUATERNION"
"438","0.944361313","10.76.105.1","10.244.105.1","MAVLink 2.0","139","HIGHRES_IMU"
"439","0.944367730","10.76.105.1","10.244.105.1","MAVLink 2.0","102","SCALED_IMU"
"440","0.944379787","10.76.105.1","10.244.105.1","MAVLink 2.0","99","SERVO_OUTPUT_RAW"
"441","0.944483461","10.244.105.1","10.76.105.1","TCP","66","36286  >  5760 [ACK] Seq=48 Ack=20933 Win=9617 Len=0 TSval=2474323942 TSecr=519147474"
"442","0.953356870","10.76.105.1","10.244.105.1","MAVLink 2.0","79","MISSION_CURRENT"
"443","0.953410833","10.76.105.1","10.244.105.1","MAVLink 2.0","106","ATTITUDE"
"444","0.953430287","10.76.105.1","10.244.105.1","MAVLink 2.0","110","ATTITUDE_QUATERNION"
"445","0.953446743","10.76.105.1","10.244.105.1","MAVLink 2.0","140","HIGHRES_IMU"
"446","0.953461554","10.76.105.1","10.244.105.1","MAVLink 2.0","90","SERVO_OUTPUT_RAW"
"447","0.953476323","10.76.105.1","10.244.105.1","MAVLink 2.0","95","VFR_HUD"
"448","0.958749643","10.244.105.1","10.76.105.1","TCP","66","36286  >  5760 [ACK] Seq=48 Ack=21157 Win=9617 Len=0 TSval=2474323956 TSecr=519147494"
"449","0.962365623","10.76.105.1","10.244.105.1","MAVLink 2.0","310","ODOMETRY"
"450","0.962419451","10.76.105.1","10.244.105.1","MAVLink 2.0","118","ACTUATOR_CONTROL_TARGET"
"451","0.962448667","10.244.105.1","10.76.105.1","TCP","66","36286  >  5760 [ACK] Seq=48 Ack=21453 Win=9617 Len=0 TSval=2474323960 TSecr=519147502"
"452","0.980533963","10.76.105.1","10.244.105.1","MAVLink 2.0","106","ATTITUDE"
"453","0.980592445","10.76.105.1","10.244.105.1","MAVLink 2.0","110","ATTITUDE_QUATERNION"
"454","0.980613290","10.76.105.1","10.244.105.1","MAVLink 2.0","140","HIGHRES_IMU"
"455","0.980630662","10.76.105.1","10.244.105.1","MAVLink 2.0","120","RC_CHANNELS"
"456","0.980737471","10.244.105.1","10.76.105.1","TCP","66","36286  >  5760 [ACK] Seq=48 Ack=21665 Win=9617 Len=0 TSval=2474323978 TSecr=519147517"
"457","0.989267726","10.76.105.1","10.244.105.1","MAVLink 2.0","102","SCALED_IMU"
"458","1.007558373","10.76.105.1","10.244.105.1","MAVLink 2.0","310","ODOMETRY"
"459","1.007599501","10.76.105.1","10.244.105.1","MAVLink 2.0","118","ACTUATOR_CONTROL_TARGET"
"460","1.007610828","10.76.105.1","10.244.105.1","MAVLink 2.0","106","ATTITUDE"
"461","1.007619774","10.76.105.1","10.244.105.1","MAVLink 2.0","110","ATTITUDE_QUATERNION"
"462","1.007627729","10.76.105.1","10.244.105.1","MAVLink 2.0","139","HIGHRES_IMU"
"463","1.007635673","10.76.105.1","10.244.105.1","MAVLink 2.0","99","SERVO_OUTPUT_RAW"
"464","1.007643736","10.76.105.1","10.244.105.1","MAVLink 2.0","90","SERVO_OUTPUT_RAW"
"465","1.007683673","10.244.105.1","10.76.105.1","TCP","66","36286  >  5760 [ACK] Seq=48 Ack=22211 Win=9617 Len=0 TSval=2474324005 TSecr=519147528"
"466","1.016488008","10.76.105.1","10.244.105.1","MAVLink 2.0","95","VFR_HUD"
"467","1.016526458","10.76.105.1","10.244.105.1","MAVLink 2.0","106","ATTITUDE"
"468","1.016536733","10.76.105.1","10.244.105.1","MAVLink 2.0","110","ATTITUDE_QUATERNION"
"469","1.016545372","10.76.105.1","10.244.105.1","MAVLink 2.0","140","HIGHRES_IMU"
"470","1.016545309","10.244.105.1","10.76.105.1","TCP","66","36286  >  5760 [ACK] Seq=48 Ack=22280 Win=9617 Len=0 TSval=2474324014 TSecr=519147548"
"471","1.016707237","10.244.105.1","10.76.105.1","TCP","66","36286  >  5760 [ACK] Seq=48 Ack=22398 Win=9617 Len=0 TSval=2474324014 TSecr=519147557"
"472","1.024945129","10.76.105.1","10.244.105.1","MAVLink 2.0","102","SCALED_IMU"
"473","1.033904156","10.76.105.1","10.244.105.1","MAVLink 2.0","310","ODOMETRY"
"474","1.033921707","10.244.105.1","10.76.105.1","TCP","66","36286  >  5760 [ACK] Seq=48 Ack=22678 Win=9617 Len=0 TSval=2474324032 TSecr=519147567"
"475","1.043069515","10.76.105.1","10.244.105.1","MAVLink 2.0","118","ACTUATOR_CONTROL_TARGET"
"476","1.043084171","10.76.105.1","10.244.105.1","MAVLink 2.0","92","TIMESYNC"
"477","1.043088733","10.76.105.1","10.244.105.1","MAVLink 2.0","110","ALTITUDE"
"478","1.043092675","10.76.105.1","10.244.105.1","MAVLink 2.0","106","ATTITUDE"
"479","1.043096259","10.76.105.1","10.244.105.1","MAVLink 2.0","110","ATTITUDE_QUATERNION"
"480","1.043099752","10.76.105.1","10.244.105.1","MAVLink 2.0","110","ATTITUDE_TARGET"
"481","1.043103308","10.76.105.1","10.244.105.1","MAVLink 2.0","119","ESTIMATOR_STATUS"
"482","1.043108314","10.76.105.1","10.244.105.1","MAVLink 2.0","139","HIGHRES_IMU"
"483","1.043111735","10.76.105.1","10.244.105.1","MAVLink 2.0","98","VIBRATION"
"484","1.043115312","10.76.105.1","10.244.105.1","MAVLink 2.0","99","SERVO_OUTPUT_RAW"
"485","1.043207879","10.244.105.1","10.76.105.1","TCP","66","36286  >  5760 [ACK] Seq=48 Ack=23119 Win=9617 Len=0 TSval=2474324041 TSecr=519147571"
"486","1.051916659","10.76.105.1","10.244.105.1","MAVLink 2.0","106","ATTITUDE"
"487","1.051934617","10.76.105.1","10.244.105.1","MAVLink 2.0","110","ATTITUDE_QUATERNION"
"488","1.052047766","10.244.105.1","10.76.105.1","TCP","66","36286  >  5760 [ACK] Seq=48 Ack=23203 Win=9617 Len=0 TSval=2474324050 TSecr=519147597"
"489","1.061170808","10.76.105.1","10.244.105.1","MAVLink 2.0","140","HIGHRES_IMU"
"490","1.070353507","10.76.105.1","10.244.105.1","MAVLink 2.0","90","SERVO_OUTPUT_RAW"
"491","1.070389588","10.76.105.1","10.244.105.1","MAVLink 2.0","95","VFR_HUD"
"492","1.070401626","10.76.105.1","10.244.105.1","MAVLink 2.0","310","ODOMETRY"
"493","1.070410990","10.76.105.1","10.244.105.1","MAVLink 2.0","118","ACTUATOR_CONTROL_TARGET"
"494","1.070420114","10.76.105.1","10.244.105.1","MAVLink 2.0","79","MISSION_CURRENT"
"495","1.070428901","10.76.105.1","10.244.105.1","MAVLink 2.0","102","SCALED_IMU"
"496","1.070528603","10.244.105.1","10.76.105.1","TCP","66","36286  >  5760 [ACK] Seq=48 Ack=23675 Win=9617 Len=0 TSval=2474324068 TSecr=519147598"
"497","1.079738403","10.76.105.1","10.244.105.1","MAVLink 2.0","106","ATTITUDE"
"498","1.079761398","10.76.105.1","10.244.105.1","MAVLink 2.0","110","ATTITUDE_QUATERNION"
"499","1.079772407","10.76.105.1","10.244.105.1","MAVLink 2.0","140","HIGHRES_IMU"
"500","1.079781297","10.76.105.1","10.244.105.1","MAVLink 2.0","120","RC_CHANNELS"
"501","1.079900824","10.244.105.1","10.76.105.1","TCP","66","36286  >  5760 [ACK] Seq=48 Ack=23887 Win=9617 Len=0 TSval=2474324078 TSecr=519147617"
"502","1.082652003","10.76.105.1","10.244.105.1","MAVLink 2.0","123","GPS_RAW_INT"
"503","1.129198543","10.244.105.1","10.76.105.1","TCP","66","36286  >  5760 [ACK] Seq=48 Ack=23944 Win=9617 Len=0 TSval=2474324127 TSecr=519147627"
"504","1.135237480","10.76.105.1","10.244.105.1","MAVLink 2.0","310","ODOMETRY"
"505","1.135275777","10.76.105.1","10.244.105.1","MAVLink 2.0","118","ACTUATOR_CONTROL_TARGET"
"506","1.135286624","10.76.105.1","10.244.105.1","MAVLink 2.0","106","ATTITUDE"
"507","1.135429200","10.244.105.1","10.76.105.1","TCP","66","36286  >  5760 [ACK] Seq=48 Ack=24280 Win=9617 Len=0 TSval=2474324133 TSecr=519147635"
"508","1.144814545","10.76.105.1","10.244.105.1","MAVLink 2.0","110","ATTITUDE_QUATERNION"
"509","1.144833418","10.76.105.1","10.244.105.1","MAVLink 2.0","139","HIGHRES_IMU"
"510","1.144845627","10.76.105.1","10.244.105.1","MAVLink 2.0","99","SERVO_OUTPUT_RAW"
"511","1.144859266","10.76.105.1","10.244.105.1","MAVLink 2.0","102","SCALED_IMU"
"512","1.144870202","10.76.105.1","10.244.105.1","MAVLink 2.0","90","SERVO_OUTPUT_RAW"
"513","1.144893993","10.76.105.1","10.244.105.1","MAVLink 2.0","95","VFR_HUD"
"514","1.144904811","10.76.105.1","10.244.105.1","MAVLink 2.0","106","ATTITUDE"
"515","1.144915943","10.76.105.1","10.244.105.1","MAVLink 2.0","110","ATTITUDE_QUATERNION"
"516","1.144930127","10.76.105.1","10.244.105.1","MAVLink 2.0","139","HIGHRES_IMU"
"517","1.144941381","10.76.105.1","10.244.105.1","MAVLink 2.0","310","ODOMETRY"
"518","1.144964394","10.76.105.1","10.244.105.1","MAVLink 2.0","118","ACTUATOR_CONTROL_TARGET"
"519","1.144975283","10.76.105.1","10.244.105.1","MAVLink 2.0","92","TIMESYNC"
"520","1.144985879","10.76.105.1","10.244.105.1","MAVLink 2.0","110","ALTITUDE"
"521","1.144995856","10.76.105.1","10.244.105.1","MAVLink 2.0","106","ATTITUDE"
"522","1.145017500","10.76.105.1","10.244.105.1","MAVLink 2.0","110","ATTITUDE_QUATERNION"
"523","1.145028297","10.76.105.1","10.244.105.1","MAVLink 2.0","80","EXTENDED_SYS_STATE"
"524","1.145038780","10.76.105.1","10.244.105.1","MAVLink 2.0","140","HIGHRES_IMU"
"525","1.145364829","10.76.105.1","10.244.105.1","MAVLink 2.0","102","SCALED_IMU"
"526","1.145376947","10.76.105.1","10.244.105.1","MAVLink 2.0","99","SERVO_OUTPUT_RAW"
"527","1.146962786","10.244.105.1","10.76.105.1","TCP","66","36286  >  5760 [ACK] Seq=48 Ack=25283 Win=9617 Len=0 TSval=2474324145 TSecr=519147637"
"528","1.153748682","10.76.105.1","10.244.105.1","MAVLink 2.0","106","ATTITUDE"
"529","1.153777405","10.76.105.1","10.244.105.1","MAVLink 2.0","110","ATTITUDE_QUATERNION"
"530","1.153791642","10.76.105.1","10.244.105.1","MAVLink 2.0","140","HIGHRES_IMU"
"531","1.153804223","10.76.105.1","10.244.105.1","MAVLink 2.0","90","SERVO_OUTPUT_RAW"
"532","1.153814996","10.76.105.1","10.244.105.1","MAVLink 2.0","95","VFR_HUD"
"533","1.157565723","10.76.105.1","10.244.105.1","MAVLink 2.0","310","ODOMETRY"
"534","1.157585036","10.76.105.1","10.244.105.1","MAVLink 2.0","118","ACTUATOR_CONTROL_TARGET"
"535","1.157595114","10.76.105.1","10.244.105.1","MAVLink 2.0","110","ATTITUDE_TARGET"
"536","1.163227985","10.244.105.1","10.76.105.1","TCP","66","36286  >  5760 [ACK] Seq=48 Ack=25834 Win=9617 Len=0 TSval=2474324161 TSecr=519147697"
"537","1.175506668","10.76.105.1","10.244.105.1","MAVLink 2.0","79","MISSION_CURRENT"
"538","1.175553605","10.76.105.1","10.244.105.1","MAVLink 2.0","106","ATTITUDE"
"539","1.175567119","10.76.105.1","10.244.105.1","MAVLink 2.0","110","ATTITUDE_QUATERNION"
"540","1.175578373","10.76.105.1","10.244.105.1","MAVLink 2.0","140","HIGHRES_IMU"
"541","1.175589042","10.76.105.1","10.244.105.1","MAVLink 2.0","120","RC_CHANNELS"
"542","1.175607518","10.244.105.1","10.76.105.1","TCP","66","36286  >  5760 [ACK] Seq=48 Ack=25931 Win=9617 Len=0 TSval=2474324173 TSecr=519147714"
"543","1.176181033","10.244.105.1","10.76.105.1","TCP","66","36286  >  5760 [ACK] Seq=48 Ack=26059 Win=9617 Len=0 TSval=2474324174 TSecr=519147717"
"544","1.184002728","10.76.105.1","10.244.105.1","MAVLink 2.0","102","SCALED_IMU"
"545","1.184135395","10.244.105.1","10.76.105.1","TCP","66","36286  >  5760 [ACK] Seq=48 Ack=26095 Win=9617 Len=0 TSval=2474324182 TSecr=519147727"
"546","1.202358099","10.76.105.1","10.244.105.1","MAVLink 2.0","310","ODOMETRY"
"547","1.202416038","10.76.105.1","10.244.105.1","MAVLink 2.0","118","ACTUATOR_CONTROL_TARGET"
"548","1.202428200","10.76.105.1","10.244.105.1","MAVLink 2.0","106","ATTITUDE"
"549","1.202436626","10.76.105.1","10.244.105.1","MAVLink 2.0","110","ATTITUDE_QUATERNION"
"550","1.202444973","10.76.105.1","10.244.105.1","MAVLink 2.0","139","HIGHRES_IMU"
"551","1.202453242","10.76.105.1","10.244.105.1","MAVLink 2.0","99","SERVO_OUTPUT_RAW"
"552","1.202461767","10.76.105.1","10.244.105.1","MAVLink 2.0","90","SERVO_OUTPUT_RAW"
"553","1.202522121","10.244.105.1","10.76.105.1","TCP","66","36286  >  5760 [ACK] Seq=48 Ack=26605 Win=9617 Len=0 TSval=2474324200 TSecr=519147738"
"554","1.211581548","10.76.105.1","10.244.105.1","MAVLink 2.0","95","VFR_HUD"
"555","1.211649994","10.244.105.1","10.76.105.1","TCP","66","36286  >  5760 [ACK] Seq=48 Ack=26634 Win=9617 Len=0 TSval=2474324209 TSecr=519147747"
"556","1.220289434","10.76.105.1","10.244.105.1","MAVLink 2.0","106","ATTITUDE"
"557","1.220343025","10.76.105.1","10.244.105.1","MAVLink 2.0","110","ATTITUDE_QUATERNION"
"558","1.220358189","10.244.105.1","10.76.105.1","TCP","66","36286  >  5760 [ACK] Seq=48 Ack=26674 Win=9617 Len=0 TSval=2474324218 TSecr=519147757"
"559","1.220362692","10.76.105.1","10.244.105.1","MAVLink 2.0","139","HIGHRES_IMU"
"560","1.220431100","10.244.105.1","10.76.105.1","TCP","66","36286  >  5760 [ACK] Seq=48 Ack=26791 Win=9617 Len=0 TSval=2474324218 TSecr=519147757"
"561","1.229257183","10.76.105.1","10.244.105.1","MAVLink 2.0","102","SCALED_IMU"
"562","1.231105280","10.244.105.1","10.76.105.1","TCP","66","36286  >  5760 [ACK] Seq=48 Ack=26827 Win=9617 Len=0 TSval=2474324229 TSecr=519147767"
"563","1.238517220","10.76.105.1","10.244.105.1","MAVLink 2.0","310","ODOMETRY"
"564","1.238566843","10.76.105.1","10.244.105.1","MAVLink 2.0","118","ACTUATOR_CONTROL_TARGET"
"565","1.238581142","10.76.105.1","10.244.105.1","MAVLink 2.0","92","TIMESYNC"
"566","1.238592484","10.76.105.1","10.244.105.1","MAVLink 2.0","110","ALTITUDE"
"567","1.238603080","10.76.105.1","10.244.105.1","MAVLink 2.0","106","ATTITUDE"
"568","1.238613505","10.76.105.1","10.244.105.1","MAVLink 2.0","110","ATTITUDE_QUATERNION"
"569","1.238632719","10.76.105.1","10.244.105.1","MAVLink 2.0","119","ESTIMATOR_STATUS"
"570","1.238721930","10.244.105.1","10.76.105.1","TCP","66","36286  >  5760 [ACK] Seq=48 Ack=27330 Win=9617 Len=0 TSval=2474324236 TSecr=519147771"
"571","1.247554960","10.76.105.1","10.244.105.1","MAVLink 2.0","139","HIGHRES_IMU"
"572","1.247590642","10.76.105.1","10.244.105.1","MAVLink 2.0","99","SERVO_OUTPUT_RAW"
"573","1.252946292","10.244.105.1","10.76.105.1","TCP","66","36286  >  5760 [ACK] Seq=48 Ack=27436 Win=9617 Len=0 TSval=2474324251 TSecr=519147778"
"574","1.256221898","10.76.105.1","10.244.105.1","MAVLink 2.0","106","ATTITUDE"
"575","1.256428680","10.244.105.1","10.76.105.1","TCP","66","36286  >  5760 [ACK] Seq=48 Ack=27476 Win=9617 Len=0 TSval=2474324254 TSecr=519147797"
"576","1.265487269","10.76.105.1","10.244.105.1","MAVLink 2.0","110","ATTITUDE_QUATERNION"
"577","1.265524718","10.76.105.1","10.244.105.1","MAVLink 2.0","140","HIGHRES_IMU"
"578","1.265537482","10.76.105.1","10.244.105.1","MAVLink 2.0","90","SERVO_OUTPUT_RAW"
"579","1.265547560","10.76.105.1","10.244.105.1","MAVLink 2.0","95","VFR_HUD"
"580","1.265558487","10.76.105.1","10.244.105.1","MAVLink 2.0","310","ODOMETRY"
"581","1.265568356","10.76.105.1","10.244.105.1","MAVLink 2.0","118","ACTUATOR_CONTROL_TARGET"
"582","1.265578281","10.76.105.1","10.244.105.1","MAVLink 2.0","102","SCALED_IMU"
"583","1.265716555","10.244.105.1","10.76.105.1","TCP","66","36286  >  5760 [ACK] Seq=48 Ack=27979 Win=9617 Len=0 TSval=2474324263 TSecr=519147797"
"584","1.274464476","10.76.105.1","10.244.105.1","MAVLink 2.0","106","ATTITUDE"
"585","1.274500004","10.76.105.1","10.244.105.1","MAVLink 2.0","110","ATTITUDE_QUATERNION"
"586","1.274512299","10.76.105.1","10.244.105.1","MAVLink 2.0","140","HIGHRES_IMU"
"587","1.274524814","10.76.105.1","10.244.105.1","MAVLink 2.0","120","RC_CHANNELS"
"588","1.275334567","10.244.105.1","10.76.105.1","TCP","66","36286  >  5760 [ACK] Seq=48 Ack=28191 Win=9617 Len=0 TSval=2474324273 TSecr=519147817"
"589","1.283234432","10.76.105.1","10.244.105.1","MAVLink 2.0","123","GPS_RAW_INT"
"590","1.283320770","10.76.105.1","10.244.105.1","MAVLink 2.0","79","MISSION_CURRENT"
"591","1.283353010","10.76.105.1","10.244.105.1","MAVLink 2.0","110","ATTITUDE_TARGET"
"592","1.283453838","10.244.105.1","10.76.105.1","TCP","66","36286  >  5760 [ACK] Seq=48 Ack=28305 Win=9617 Len=0 TSval=2474324281 TSecr=519147824"
"593","1.292294173","10.76.105.1","10.244.105.1","MAVLink 2.0","310","ODOMETRY"
"594","1.292466971","10.244.105.1","10.76.105.1","TCP","66","36286  >  5760 [ACK] Seq=48 Ack=28549 Win=9617 Len=0 TSval=2474324290 TSecr=519147838"
"595","1.301445411","10.76.105.1","10.244.105.1","MAVLink 2.0","118","ACTUATOR_CONTROL_TARGET"
"596","1.301501775","10.76.105.1","10.244.105.1","MAVLink 2.0","106","ATTITUDE"
"597","1.301523182","10.76.105.1","10.244.105.1","MAVLink 2.0","110","ATTITUDE_QUATERNION"
"598","1.301540850","10.76.105.1","10.244.105.1","MAVLink 2.0","140","HIGHRES_IMU"
"599","1.301558294","10.76.105.1","10.244.105.1","MAVLink 2.0","99","SERVO_OUTPUT_RAW"
"600","1.301598407","10.244.105.1","10.76.105.1","TCP","66","36286  >  5760 [ACK] Seq=48 Ack=28792 Win=9617 Len=0 TSval=2474324299 TSecr=519147838"
"601","1.310324286","10.76.105.1","10.244.105.1","MAVLink 2.0","102","SCALED_IMU"
"602","1.310365847","10.76.105.1","10.244.105.1","MAVLink 2.0","90","SERVO_OUTPUT_RAW"
"603","1.310381786","10.76.105.1","10.244.105.1","MAVLink 2.0","95","VFR_HUD"
"604","1.310423671","10.244.105.1","10.76.105.1","TCP","66","36286  >  5760 [ACK] Seq=48 Ack=28881 Win=9617 Len=0 TSval=2474324308 TSecr=519147848"
"605","1.319820171","10.76.105.1","10.244.105.1","MAVLink 2.0","106","ATTITUDE"
"606","1.319876765","10.76.105.1","10.244.105.1","MAVLink 2.0","110","ATTITUDE_QUATERNION"
"607","1.319898792","10.76.105.1","10.244.105.1","MAVLink 2.0","139","HIGHRES_IMU"
"608","1.319970731","10.244.105.1","10.76.105.1","TCP","66","36286  >  5760 [ACK] Seq=48 Ack=29038 Win=9617 Len=0 TSval=2474324318 TSecr=519147858"
"609","1.325514384","10.76.105.1","10.244.105.1","MAVLink 2.0","310","ODOMETRY"
"610","1.325589692","10.244.105.1","10.76.105.1","TCP","66","36286  >  5760 [ACK] Seq=48 Ack=29282 Win=9617 Len=0 TSval=2474324323 TSecr=519147871"
"611","1.326604310","10.76.105.1","10.244.105.1","MAVLink 2.0","118","ACTUATOR_CONTROL_TARGET"
"612","1.330023834","10.244.105.1","10.76.105.1","TCP","66","36286  >  5760 [ACK] Seq=48 Ack=29334 Win=9617 Len=0 TSval=2474324328 TSecr=519147871"
"613","1.375403388","10.76.105.1","10.244.105.1","MAVLink 2.0","92","TIMESYNC"
"614","1.375463766","10.76.105.1","10.244.105.1","MAVLink 2.0","110","ALTITUDE"
"615","1.375482810","10.76.105.1","10.244.105.1","MAVLink 2.0","106","ATTITUDE"
"616","1.375499175","10.76.105.1","10.244.105.1","MAVLink 2.0","110","ATTITUDE_QUATERNION"
"617","1.375514651","10.76.105.1","10.244.105.1","MAVLink 2.0","139","HIGHRES_IMU"
